Railroad,Code,Station Name,Branch,Latitude,Longitude,Outbound Title,Inbound Title,Zone,Station URL,Parking Map URL,Accessibility,Georeference
LIRR,RSN,Roslyn,Oyster Bay,40.79054285,-73.6432807,To Oyster Bay,To Jamaica & New York,7,https://new.mta.info/stations/roslyn,https://new.mta.info/document/117461,FULL,POINT (-73.6432807 40.79054285)
LIRR,SMR,Stewart Manor,Hempstead,40.72303304,-73.68106214,To Hempstead,To Jamaica & New York,4,https://new.mta.info/stations/stewart-manor,https://new.mta.info/document/116076,FULL,POINT (-73.68106214 40.72303304)
MNR,2EN,East Norwalk,New Haven,41.104017,-73.404428,To New Haven,To Stamford & New York,17,https://new.mta.info/stations/east-norwalk,,PARTIAL,POINT (-73.404428 41.104017)
LIRR,HOL,Hollis,Hempstead,40.71022657,-73.76660795,To Hempstead,To Jamaica & New York,3,https://new.mta.info/stations/hollis,https://new.mta.info/document/115926,NONE,POINT (-73.76660795 40.71022657)
MNR,0MB,Marble Hill,Hudson,40.874782,-73.912311,To Croton-Harmon & Poughkeepsie,To New York,2,https://new.mta.info/stations/marble-hill,,NONE,POINT (-73.912311 40.874782)
LIRR,GVL,Greenvale,Oyster Bay,40.8155504,-73.62694429,To Oyster Bay,To Jamaica & New York,7,https://new.mta.info/stations/greenvale,https://new.mta.info/document/115886,FULL,POINT (-73.62694429 40.8155504)
MNR,1VA,Valhalla,Harlem,41.073988,-73.774743,To Southeast & Wassaic,To White Plains & New York,5,https://new.mta.info/stations/valhalla,https://new.mta.info/document/116886,FULL,POINT (-73.774743 41.073988)
LIRR,GHD,Glen Head,Oyster Bay,40.8322646,-73.6261469,To Oyster Bay,To Jamaica & New York,7,https://new.mta.info/stations/glen-head,https://new.mta.info/document/115821,FULL,POINT (-73.6261469 40.8322646)
LIRR,BRT,Belmont Park,Belmont,40.71368754,-73.72829722,Arrivals,Departures,4,https://new.mta.info/stations/belmont-park,,FULL,POINT (-73.72829722 40.71368754)
MNR,1BW,Brewster,Harlem,41.394358,-73.619973,To Southeast & Wassaic,To White Plains & New York,7,https://new.mta.info/stations/brewster,https://new.mta.info/document/116276,FULL,POINT (-73.619973 41.394358)
LIRR,SPK,Speonk,Montauk,40.82132553,-72.70533861,To Montauk,To Jamaica & New York,12,https://new.mta.info/stations/speonk,https://new.mta.info/document/115851,FULL,POINT (-72.70533861 40.82132553)
MNR,5NG,Naugatuck,Waterbury,41.492816,-73.05215,To Waterbury,"To Bridgeport, Stamford, & New York",51,https://new.mta.info/stations/naugatuck,,NONE,POINT (-73.05215 41.492816)
MNR,5BF,Beacon Falls,Waterbury,41.440683,-73.063108,To Waterbury,"To Bridgeport, Stamford, & New York",51,https://new.mta.info/stations/beacon-falls,,NONE,POINT (-73.063108 41.440683)
LIRR,CSH,Cold Spring Harbor,Port Jefferson,40.83562276,-73.45112791,To Huntington & Port Jefferson,To Jamaica & New York,9,https://new.mta.info/stations/cold-spring-harbor,https://new.mta.info/document/113691,PARTIAL,POINT (-73.45112791 40.83562276)
LIRR,RHD,Riverhead,Greenport,40.91980061,-72.66685927,To Greenport,To Jamaica & New York,14,https://new.mta.info/stations/riverhead,https://new.mta.info/document/117406,FULL,POINT (-72.66685927 40.91980061)
MNR,1BH,Bedford Hills,Harlem,41.237151,-73.700337,To Southeast & Wassaic,To White Plains & New York,6,https://new.mta.info/stations/bedford-hills,https://new.mta.info/document/116201,FULL,POINT (-73.700337 41.237151)
MNR,1WP,White Plains,Harlem,41.033344,-73.775118,To Southeast & Wassaic,To New York,4,https://new.mta.info/stations/white-plains,https://new.mta.info/document/116941,FULL,POINT (-73.775118 41.033344)
MNR,2RO,Rowayton,New Haven,41.077645,-73.443969,To New Haven,To Stamford & New York,16,https://new.mta.info/stations/rowayton,,PARTIAL,POINT (-73.443969 41.077645)
MNR,0PO,Poughkeepsie,Hudson,41.707104,-73.938107,Arrivals,Departures,9,https://new.mta.info/stations/poughkeepsie,https://new.mta.info/document/116811,FULL,POINT (-73.938107 41.707104)
LIRR,RVC,Rockville Centre,Babylon,40.65835409,-73.6466154,To Babylon & Points East,To Jamaica & New York,7,https://new.mta.info/stations/rockville-centre,https://new.mta.info/document/117421,FULL,POINT (-73.6466154 40.65835409)
LIRR,BDY,Broadway,Port Washington,40.76165279,-73.80181951,To Great Neck & Port Washington,To New York,3,https://new.mta.info/stations/broadway,https://new.mta.info/document/113666,FULL,POINT (-73.80181951 40.76165279)
LIRR,WYD,Wyandanch,Ronkonkoma,40.75484196,-73.3578579,To Ronkonkoma & Points East,To Jamaica & New York,9,https://new.mta.info/stations/wyandanch,https://new.mta.info/document/116131,FULL,POINT (-73.3578579 40.75484196)
MNR,1BR,Southeast,Harlem,41.413547,-73.623225,To Wassaic,To White Plains & New York,7,https://new.mta.info/stations/southeast,https://new.mta.info/document/116851,FULL,POINT (-73.623225 41.413547)
LIRR,MQA,Massapequa,Babylon,40.67696852,-73.46898478,To Babylon & Points East,To Jamaica & New York,7,https://new.mta.info/stations/massapequa,https://new.mta.info/document/115816,FULL,POINT (-73.46898478 40.67696852)
MNR,2PH,Pelham,New Haven,40.909918,-73.808422,To Stamford & New Haven,To New York,12,https://new.mta.info/stations/pelham,https://new.mta.info/document/116726,PARTIAL,POINT (-73.808422 40.909918)
LIRR,AGT,Amagansett,Montauk,40.98003502,-72.13259431,To Montauk,To Jamaica & New York,14,https://new.mta.info/stations/amagansett,https://new.mta.info/document/113631,FULL,POINT (-72.13259431 40.98003502)
MNR,0AR,Ardsley-on-Hudson,Hudson,41.027087,-73.876694,To Croton-Harmon & Poughkeepsie,To New York,4,https://new.mta.info/stations/ardsley-hudson,https://new.mta.info/document/116171,FULL,POINT (-73.876694 41.027087)
MNR,4BV,Branchville,Danbury,41.266252,-73.440573,To Danbury,"To South Norwalk, Stamford, & New York",42,https://new.mta.info/stations/branchville,,FULL,POINT (-73.440573 41.266252)
MNR,1FO,Fordham,Harlem,40.862013,-73.890097,"To Stamford, New Haven, White Plains, Southeast, & Wassaic",To New York,2,https://new.mta.info/stations/fordham,,FULL,POINT (-73.890097 40.862013)
MNR,2SR,Stratford,New Haven,41.194643,-73.130915,To New Haven & Waterbury,To Stamford & New York,20,https://new.mta.info/stations/stratford,,PARTIAL,POINT (-73.130915 41.194643)
LIRR,OBY,Oyster Bay,Oyster Bay,40.87532191,-73.53386679,Arrivals,Departures,7,https://new.mta.info/stations/oyster-bay,https://new.mta.info/document/117356,FULL,POINT (-73.53386679 40.87532191)
MNR,2NH,New Haven,New Haven,41.297789,-72.925646,Arrivals,Departures,21,https://new.mta.info/stations/new-haven,,FULL,POINT (-72.925646 41.297789)
LIRR,SJM,St. James,Port Jefferson,40.88228415,-73.15934174,To Port Jefferson,To Jamaica & New York,10,https://new.mta.info/stations/st-james,https://new.mta.info/document/116071,FULL,POINT (-73.15934174 40.88228415)
MNR,0YK,Yonkers,Hudson,40.936833,-73.901741,To Croton-Harmon & Poughkeepsie,To New York,3,https://new.mta.info/stations/yonkers,https://new.mta.info/document/116951,FULL,POINT (-73.901741 40.936833)
LIRR,MIN,Mineola,Port Jefferson,40.74035013,-73.64087519,To Points East,To Jamaica & New York,4,https://new.mta.info/stations/mineola,https://new.mta.info/document/116021,FULL,POINT (-73.64087519 40.74035013)
MNR,1PW,Pawling,Wassaic,41.564587,-73.600435,To Wassaic,"To Southeast, White Plains, & New York",8,https://new.mta.info/stations/pawling,https://new.mta.info/document/116711,FULL,POINT (-73.600435 41.564587)
LIRR,ADL,Auburndale,Port Washington,40.76148239,-73.78974116,To Great Neck & Port Washington,To New York,3,https://new.mta.info/stations/auburndale,https://new.mta.info/document/98101,FULL,POINT (-73.78974116 40.76148239)
LIRR,ABT,Albertson,Oyster Bay,40.77198286,-73.64170188,To Oyster Bay,To Jamaica & New York,7,https://new.mta.info/stations/albertson,https://new.mta.info/document/97971,FULL,POINT (-73.64170188 40.77198286)
LIRR,PJN,Port Jefferson,Port Jefferson,40.93447575,-73.05244768,Arrivals,Departures,10,https://new.mta.info/stations/port-jefferson,https://new.mta.info/document/117391,FULL,POINT (-73.05244768 40.93447575)
MNR,1NW,North White Plains,Harlem,41.050144,-73.772823,To Southeast & Wassaic,To White Plains & New York,4,https://new.mta.info/stations/north-white-plains,https://new.mta.info/document/116686,FULL,POINT (-73.772823 41.050144)
MNR,2MA,Mamaroneck,New Haven,40.953968,-73.736172,To Stamford & New Haven,To New York,13,https://new.mta.info/stations/mamaroneck,https://new.mta.info/document/116646,PARTIAL,POINT (-73.736172 40.953968)
LIRR,BWD,Brentwood,Ronkonkoma,40.78092582,-73.24324865,To Ronkonkoma & Points East,To Jamaica & New York,10,https://new.mta.info/stations/brentwood,https://new.mta.info/document/113656,FULL,POINT (-73.24324865 40.78092582)
LIRR,EMT,Elmont-UBS Arena,Hempstead,40.720074,-73.725549,To Points East,To Jamaica & New York,4,https://new.mta.info/stations/elmont-ubs-arena,https://new.mta.info/document/113731,FULL,POINT (-73.725549 40.720074)
LIRR,WWD,Westwood,West Hempstead,40.66837883,-73.68118344,To West Hempstead,To Jamaica & New York,4,https://new.mta.info/stations/westwood,https://new.mta.info/document/116116,FULL,POINT (-73.68118344 40.66837883)
LIRR,SHN,Southampton,Montauk,40.89507414,-72.38938784,To Montauk,To Jamaica & New York,14,https://new.mta.info/stations/southampton,https://new.mta.info/document/115826,FULL,POINT (-72.38938784 40.89507414)
MNR,0MH,Morris Heights,Hudson,40.854235,-73.919764,To Croton-Harmon & Poughkeepsie,To New York,2,https://new.mta.info/stations/morris-heights,,FULL,POINT (-73.919764 40.854235)
MNR,1WN,Woodlawn,Harlem,40.895706,-73.86246,"To White Plains, Southeast, & Wassaic",To New York,2,https://new.mta.info/stations/woodlawn-mnr,https://new.mta.info/document/116946,NONE,POINT (-73.86246 40.895706)
LIRR,GNK,Great Neck,Port Washington,40.78718214,-73.72626362,To Port Washington,To New York,4,https://new.mta.info/stations/great-neck,https://new.mta.info/document/115846,FULL,POINT (-73.72626362 40.78718214)
LIRR,HEM,Hempstead,Hempstead,40.71316538,-73.62516422,Arrivals,Departures,4,https://new.mta.info/stations/hempstead,https://new.mta.info/document/115896,FULL,POINT (-73.62516422 40.71316538)
LIRR,WGH,Wantagh,Babylon,40.673048,-73.50888771,To Babylon & Points East,To Jamaica & New York,7,https://new.mta.info/stations/wantagh,https://new.mta.info/document/116091,FULL,POINT (-73.50888771 40.673048)
LIRR,GRV,Great River,Montauk,40.74047982,-73.16999864,"To Patchogue, Speonk, & Montauk",To Jamaica & New York,10,https://new.mta.info/stations/great-river,https://new.mta.info/document/115861,FULL,POINT (-73.16999864 40.74047982)
LIRR,MVN,Malverne,West Hempstead,40.67550074,-73.66880973,To West Hempstead,To Jamaica & New York,4,https://new.mta.info/stations/malverne,https://new.mta.info/document/115781,FULL,POINT (-73.66880973 40.67550074)
MNR,4DN,Danbury,Danbury,41.396057,-73.448449,Arrivals,Departures,42,https://new.mta.info/stations/danbury,,FULL,POINT (-73.448449 41.396057)
LIRR,BPT,Bellport,Montauk,40.77376884,-72.94363461,To Speonk & Montauk,To Jamaica & New York,12,https://new.mta.info/stations/bellport,https://new.mta.info/document/113646,FULL,POINT (-72.94363461 40.77376884)
LIRR,BMR,Bellmore,Babylon,40.66883214,-73.5288878,To Babylon & Points East,To Jamaica & New York,7,https://new.mta.info/stations/bellmore,https://new.mta.info/document/113641,FULL,POINT (-73.5288878 40.66883214)
LIRR,ENY,East New York,City Terminal Zone,40.67595024,-73.90374759,To Jamaica & Points East,To Atlantic Terminal,1,https://new.mta.info/stations/east-new-york,,NONE,POINT (-73.90374759 40.67595024)
MNR,2BP,Bridgeport,New Haven,41.177594,-73.186724,To New Haven & Waterbury,To Stamford & New York,19,https://new.mta.info/stations/bridgeport,,FULL,POINT (-73.186724 41.177594)
MNR,1WI,Harlem Valley-Wingdale,Wassaic,41.637294,-73.571759,To Wassaic,"To Southeast, White Plains, & New York",9,https://new.mta.info/stations/harlem-valley-wingdale,https://new.mta.info/document/116376,FULL,POINT (-73.571759 41.637294)
LIRR,CPL,Carle Place,Port Jefferson,40.7492723,-73.60345352,To Points East,To Jamaica & New York,7,https://new.mta.info/stations/carle-place,https://new.mta.info/document/113671,FULL,POINT (-73.60345352 40.7492723)
LIRR,HWT,Hewlett,Far Rockaway,40.63669756,-73.70523093,To Far Rockaway,To Jamaica & New York,4,https://new.mta.info/stations/hewlett,https://new.mta.info/document/115906,FULL,POINT (-73.70523093 40.63669756)
MNR,5DB,Derby-Shelton,Waterbury,41.320364,-73.083527,To Waterbury,"To Bridgeport, Stamford, & New York",51,https://new.mta.info/stations/derby-shelton,,NONE,POINT (-73.083527 41.320364)
LIRR,FRY,Far Rockaway,Far Rockaway,40.60915917,-73.75059373,Arrivals,Departures,4,https://new.mta.info/stations/far-rockaway,https://new.mta.info/document/113736,FULL,POINT (-73.75059373 40.60915917)
MNR,2FF,Fairfield,New Haven,41.142862,-73.258079,To New Haven,To Stamford & New York,18,https://new.mta.info/stations/fairfield,,PARTIAL,POINT (-73.258079 41.142862)
MNR,0HL,Harlem-125 St,City Terminal Zone,40.805278,-73.938918,Outbound,To Grand Central,1,https://new.mta.info/stations/harlem-125-street,,FULL,POINT (-73.938918 40.805278)
LIRR,HPA,Hunterspoint Av,City Terminal Zone,40.74232948,-73.94702785,To Jamaica & Points East,To Long Island City,1,https://new.mta.info/stations/hunterspoint-avenue,,NONE,POINT (-73.94702785 40.74232948)
MNR,1KA,Katonah,Harlem,41.259826,-73.684086,To Southeast & Wassaic,To White Plains & New York,6,https://new.mta.info/stations/katonah,https://new.mta.info/document/116451,FULL,POINT (-73.684086 41.259826)
LIRR,HVL,Hicksville,Port Jefferson,40.7671451,-73.52852279,To Points East,To Jamaica & New York,7,https://new.mta.info/stations/hicksville,https://new.mta.info/document/115916,FULL,POINT (-73.52852279 40.7671451)
MNR,2WP,Westport,New Haven,41.118822,-73.37146,To New Haven,To Stamford & New York,18,https://new.mta.info/stations/westport,,FULL,POINT (-73.37146 41.118822)
LIRR,LCE,Lawrence,Far Rockaway,40.61576138,-73.73583686,To Far Rockaway,To Jamaica & New York,4,https://new.mta.info/stations/lawrence,https://new.mta.info/document/116006,FULL,POINT (-73.73583686 40.61576138)
LIRR,CI,Central Islip,Ronkonkoma,40.79191079,-73.19441548,To Ronkonkoma & Points East,To Jamaica & New York,10,https://new.mta.info/stations/central-islip,https://new.mta.info/document/113681,FULL,POINT (-73.19441548 40.79191079)
MNR,1PA,Patterson,Wassaic,41.51173,-73.604251,To Wassaic,"To Southeast, White Plains, & New York",8,https://new.mta.info/stations/patterson,https://new.mta.info/document/116706,FULL,POINT (-73.604251 41.51173)
LIRR,LVW,Lakeview,West Hempstead,40.68584786,-73.65213781,To West Hempstead,To Jamaica & New York,4,https://new.mta.info/stations/lakeview,https://new.mta.info/document/115996,FULL,POINT (-73.65213781 40.68584786)
LIRR,MSY,Mastic-Shirley,Montauk,40.79898926,-72.86432497,To Speonk & Montauk,To Jamaica & New York,12,https://new.mta.info/stations/mastic-shirley,https://new.mta.info/document/115856,FULL,POINT (-72.86432497 40.79898926)
LIRR,BSR,Bay Shore,Montauk,40.72461326,-73.25374297,"To Patchogue, Speonk, & Montauk",To Jamaica & New York,10,https://new.mta.info/stations/bay-shore,https://new.mta.info/document/98441,FULL,POINT (-73.25374297 40.72461326)
MNR,4CA,Cannondale,Danbury,41.217129,-73.426333,To Danbury,"To South Norwalk, Stamford, & New York",41,https://new.mta.info/stations/cannondale,,FULL,POINT (-73.426333 41.217129)
LIRR,LMR,Locust Manor,Far Rockaway,40.67516489,-73.7650805,To Points East,To Jamaica & New York,3,https://new.mta.info/stations/locust-manor,https://new.mta.info/document/114201,NONE,POINT (-73.7650805 40.67516489)
MNR,0RV,Riverdale,Hudson,40.905213,-73.913482,To Croton-Harmon & Poughkeepsie,To New York,2,https://new.mta.info/stations/riverdale,https://new.mta.info/document/116821,FULL,POINT (-73.913482 40.905213)
LIRR,BWN,Baldwin,Babylon,40.65678547,-73.60716189,To Babylon & Points East,To Jamaica & New York,7,https://new.mta.info/stations/baldwin,https://new.mta.info/document/98436,FULL,POINT (-73.60716189 40.65678547)
MNR,1CQ,Chappaqua,Harlem,41.15816,-73.77492,To Southeast & Wassaic,To White Plains & New York,5,https://new.mta.info/stations/chappaqua,https://new.mta.info/document/116296,FULL,POINT (-73.77492 41.15816)
MNR,4WI,Wilton,Danbury,41.195407,-73.431601,To Danbury,"To South Norwalk, Stamford, & New York",41,https://new.mta.info/stations/wilton,,FULL,POINT (-73.431601 41.195407)
MNR,2SP,Southport,New Haven,41.135823,-73.287147,To New Haven,To Stamford & New York,18,https://new.mta.info/stations/southport,,PARTIAL,POINT (-73.287147 41.135823)
MNR,1CW,Crestwood,Harlem,40.959242,-73.820779,"To White Plains, Southeast, & Wassaic",To New York,3,https://new.mta.info/stations/crestwood,https://new.mta.info/document/116321,FULL,POINT (-73.820779 40.959242)
MNR,1TR,Tremont,Harlem,40.846907,-73.899715,"To White Plains, Southeast, & Wassaic",To New York,2,https://new.mta.info/stations/tremont,,NONE,POINT (-73.899715 40.846907)
LIRR,MPK,Massapequa Park,Babylon,40.67790139,-73.45466653,To Babylon & Points East,To Jamaica & New York,7,https://new.mta.info/stations/massapequa-park,https://new.mta.info/document/115841,FULL,POINT (-73.45466653 40.67790139)
LIRR,GBN,Gibson,Far Rockaway,40.64920962,-73.7018338,To Far Rockaway,To Jamaica & New York,4,https://new.mta.info/stations/gibson,https://new.mta.info/document/115796,FULL,POINT (-73.7018338 40.64920962)
LIRR,GCT,Grand Central,City Terminal Zone,40.75516235,-73.97545486,Departures,Arrivals,1,https://new.mta.info/stations/grand-central-madison,,FULL,POINT (-73.97545486 40.75516235)
LIRR,IPK,Island Park,Long Beach,40.60141315,-73.65458563,To Long Beach,To Jamaica & New York,7,https://new.mta.info/stations/island-park,https://new.mta.info/document/115946,FULL,POINT (-73.65458563 40.60141315)
LIRR,SVL,Sayville,Montauk,40.7404148,-73.08664699,"To Patchogue, Speonk, & Montauk",To Jamaica & New York,10,https://new.mta.info/stations/sayville,https://new.mta.info/document/117466,FULL,POINT (-73.08664699 40.7404148)
MNR,3GB,Glenbrook,New Canaan,41.07106,-73.520074,To New Canaan,To Stamford & New York,31,https://new.mta.info/stations/glenbrook,,FULL,POINT (-73.520074 41.07106)
LIRR,MHT,Manhasset,Port Washington,40.79674855,-73.69983683,To Port Washington,To New York,4,https://new.mta.info/stations/manhasset,https://new.mta.info/document/115786,FULL,POINT (-73.69983683 40.79674855)
MNR,0GA,Garrison,Hudson,41.380881,-73.947436,To Poughkeepsie,To Croton-Harmon & New York,7,https://new.mta.info/stations/garrison,https://new.mta.info/document/116341,FULL,POINT (-73.947436 41.380881)
MNR,1WG,Williams Bridge,Harlem,40.878637,-73.870875,"To White Plains, Southeast, & Wassaic",To New York,2,https://new.mta.info/stations/williams-bridge,,NONE,POINT (-73.870875 40.878637)
LIRR,LBH,Long Beach,Long Beach,40.59047232,-73.66452517,Arrivals,Departures,7,https://new.mta.info/stations/long-beach,https://new.mta.info/document/117331,FULL,POINT (-73.66452517 40.59047232)
LIRR,AVL,Amityville,Babylon,40.68030257,-73.42032085,To Babylon & Points East,To Jamaica & New York,9,https://new.mta.info/stations/amityville,https://new.mta.info/document/97966,FULL,POINT (-73.42032085 40.68030257)
MNR,0PM,Philipse Manor,Hudson,41.094617,-73.86971,To Croton-Harmon & Poughkeepsie,To New York,5,https://new.mta.info/stations/philipse-manor,https://new.mta.info/document/116776,PARTIAL,POINT (-73.86971 41.094617)
LIRR,FMD,Farmingdale,Ronkonkoma,40.7359587,-73.44109502,To Ronkonkoma & Points East,To Jamaica & New York,7,https://new.mta.info/stations/farmingdale,https://new.mta.info/document/113741,FULL,POINT (-73.44109502 40.7359587)
LIRR,SCF,Sea Cliff,Oyster Bay,40.85274959,-73.62541832,To Oyster Bay,To Jamaica & New York,7,https://new.mta.info/stations/sea-cliff,https://new.mta.info/document/117471,FULL,POINT (-73.62541832 40.85274959)
MNR,0GD,Glenwood,Hudson,40.951355,-73.898694,To Croton-Harmon & Poughkeepsie,To New York,3,https://new.mta.info/stations/glenwood,https://new.mta.info/document/116346,FULL,POINT (-73.898694 40.951355)
LIRR,MFD,Medford,Greenport,40.8174148,-72.99859279,To Greenport,To Jamaica & New York,10,https://new.mta.info/stations/medford,https://new.mta.info/document/115911,FULL,POINT (-72.99859279 40.8174148)
LIRR,GCV,Glen Cove,Oyster Bay,40.86569288,-73.61637968,To Oyster Bay,To Jamaica & New York,7,https://new.mta.info/stations/glen-cove,https://new.mta.info/document/115811,FULL,POINT (-73.61637968 40.86569288)
LIRR,LTN,Laurelton,Far Rockaway,40.66853133,-73.75179637,To Points East,To Jamaica & New York,3,https://new.mta.info/stations/laurelton,https://new.mta.info/document/116001,NONE,POINT (-73.75179637 40.66853133)
LIRR,PWS,Port Washington,Port Washington,40.82915358,-73.68739411,Arrivals,Departures,4,https://new.mta.info/stations/port-washington,https://new.mta.info/document/117396,FULL,POINT (-73.68739411 40.82915358)
MNR,1PV,Pleasantville,Harlem,41.134183,-73.79222,To Southeast & Wassaic,To White Plains & New York,5,https://new.mta.info/stations/pleasantville,https://new.mta.info/document/116781,FULL,POINT (-73.79222 41.134183)
LIRR,NHP,New Hyde Park,Port Jefferson,40.730787,-73.68086663,To Points East,To Jamaica & New York,4,https://new.mta.info/stations/new-hyde-park,https://new.mta.info/document/116101,FULL,POINT (-73.68086663 40.730787)
LIRR,BSD,Bayside,Port Washington,40.76318515,-73.77084009,To Great Neck & Port Washington,To New York,3,https://new.mta.info/stations/bayside,https://new.mta.info/document/98446,FULL,POINT (-73.77084009 40.76318515)
MNR,0MN,Manitou,Hudson,41.3326,-73.970419,To Poughkeepsie,To Croton-Harmon & New York,7,https://new.mta.info/stations/manitou,,NONE,POINT (-73.970419 41.3326)
MNR,0YS,Yankees-E 153 St,Hudson,40.825577,-73.930168,To Croton-Harmon & Poughkeepsie,To New York,2,https://new.mta.info/stations/yankees-e-153-st,,FULL,POINT (-73.930168 40.825577)
MNR,1ML,Melrose,Harlem,40.82573,-73.91512,"To White Plains, Southeast, & Wassaic",To New York,2,https://new.mta.info/stations/melrose,,NONE,POINT (-73.91512 40.82573)
LIRR,CLP,Country Life Press,Hempstead,40.72137501,-73.62957195,To Hempstead,To Jamaica & New York,4,https://new.mta.info/stations/country-life-press,https://new.mta.info/document/113701,FULL,POINT (-73.62957195 40.72137501)
MNR,2ME,Mt Vernon East,New Haven,40.911928,-73.830951,To Stamford & New Haven,To New York,12,https://new.mta.info/stations/mt-vernon-east,https://new.mta.info/document/116661,FULL,POINT (-73.830951 40.911928)
LIRR,NAV,Nostrand Av,City Terminal Zone,40.67838534,-73.94829171,To Jamaica & Points East,To Atlantic Terminal,1,https://new.mta.info/stations/nostrand-avenue,,FULL,POINT (-73.94829171 40.67838534)
MNR,0NY,Grand Central,City Terminal Zone,40.75245,-73.977931,Departures,Arrivals,1,https://new.mta.info/stations/grand-central-terminal,,FULL,POINT (-73.977931 40.75245)
MNR,2DA,Darien,New Haven,41.076978,-73.472121,To New Haven,To Stamford & New York,16,https://new.mta.info/stations/darien,,FULL,POINT (-73.472121 41.076978)
MNR,2WH,West Haven,New Haven,41.270775,-72.963728,To New Haven,To Stamford & New York,21,https://new.mta.info/stations/west-haven,,FULL,POINT (-72.963728 41.270775)
LIRR,GPT,Greenport,Greenport,41.09982935,-72.36260645,Arrivals,Departures,14,https://new.mta.info/stations/greenport,https://new.mta.info/document/115876,FULL,POINT (-72.36260645 41.09982935)
MNR,0TT,Tarrytown,Hudson,41.075714,-73.865029,To Croton-Harmon & Poughkeepsie,To New York,5,https://new.mta.info/stations/tarrytown,https://new.mta.info/document/117046,FULL,POINT (-73.865029 41.075714)
MNR,1TM,Tenmile River,Wassaic,41.779445,-73.559126,To Wassaic,"To Southeast, White Plains, & New York",10,https://new.mta.info/stations/tenmile-river,https://new.mta.info/document/116871,FULL,POINT (-73.559126 41.779445)
LIRR,FPT,Freeport,Babylon,40.65749664,-73.58234056,To Babylon & Points East,To Jamaica & New York,7,https://new.mta.info/stations/freeport,https://new.mta.info/document/113761,FULL,POINT (-73.58234056 40.65749664)
LIRR,MAV,Merillon Av,Port Jefferson,40.7349414,-73.66348172,To Points East,To Jamaica & New York,4,https://new.mta.info/stations/merillon-avenue,https://new.mta.info/document/115921,FULL,POINT (-73.66348172 40.7349414)
MNR,0CT,Cortlandt,Hudson,41.247081,-73.923241,To Poughkeepsie,To Croton-Harmon & New York,6,https://new.mta.info/stations/cortlandt,https://new.mta.info/document/116316,FULL,POINT (-73.923241 41.247081)
LIRR,HBY,Hampton Bays,Montauk,40.87665017,-72.52385806,To Montauk,To Jamaica & New York,14,https://new.mta.info/stations/hampton-bays,https://new.mta.info/document/115891,FULL,POINT (-72.52385806 40.87665017)
LIRR,ROS,Rosedale,Far Rockaway,40.66591993,-73.73548579,To Points East,To Jamaica & New York,3,https://new.mta.info/stations/rosedale,https://new.mta.info/document/117456,FULL,POINT (-73.73548579 40.66591993)
MNR,1DO,Dover Plains,Wassaic,41.742751,-73.576132,To Wassaic,"To Southeast, White Plains, & New York",9,https://new.mta.info/stations/dover-plains,https://new.mta.info/document/117031,FULL,POINT (-73.576132 41.742751)
MNR,0HM,Croton-Harmon,Hudson,41.189518,-73.882552,To Poughkeepsie,To New York,5,https://new.mta.info/stations/croton-harmon,https://new.mta.info/document/116331,FULL,POINT (-73.882552 41.189518)
LIRR,HUN,Huntington,Port Jefferson,40.85301307,-73.40953855,To Port Jefferson,To Jamaica & New York,9,https://new.mta.info/stations/huntington,https://new.mta.info/document/115931,FULL,POINT (-73.40953855 40.85301307)
LIRR,LHT,Lindenhurst,Babylon,40.68828515,-73.36928389,To Babylon & Points East,To Jamaica & New York,9,https://new.mta.info/stations/lindenhurst,https://new.mta.info/document/116011,FULL,POINT (-73.36928389 40.68828515)
MNR,2MI,Milford,New Haven,41.22223,-73.060165,To New Haven,To Stamford & New York,20,https://new.mta.info/stations/milford,,FULL,POINT (-73.060165 41.22223)
LIRR,NPT,Northport,Port Jefferson,40.88065582,-73.32818209,To Port Jefferson,To Jamaica & New York,9,https://new.mta.info/stations/northport,https://new.mta.info/document/116161,FULL,POINT (-73.32818209 40.88065582)
MNR,1HA,Hartsdale,Harlem,41.011363,-73.795285,"To White Plains, Southeast, & Wassaic",To New York,4,https://new.mta.info/stations/hartsdale,https://new.mta.info/document/116391,FULL,POINT (-73.795285 41.011363)
MNR,2SN,South Norwalk,New Haven,41.095575,-73.422039,To New Haven & Danbury,To Stamford & New York,17,https://new.mta.info/stations/south-norwalk,,FULL,POINT (-73.422039 41.095575)
MNR,1WF,Wakefield,Harlem,40.906529,-73.855324,"To White Plains, Southeast, & Wassaic",To New York,2,https://new.mta.info/stations/wakefield,,NONE,POINT (-73.855324 40.906529)
LIRR,BPG,Bethpage,Ronkonkoma,40.74314217,-73.48356944,To Ronkonkoma & Points East,To Jamaica & New York,7,https://new.mta.info/stations/bethpage,https://new.mta.info/document/113651,FULL,POINT (-73.48356944 40.74314217)
LIRR,FPK,Floral Park,Hempstead,40.72465747,-73.70605881,To Points East,To Jamaica & New York,4,https://new.mta.info/stations/floral-park,https://new.mta.info/document/113746,FULL,POINT (-73.70605881 40.72465747)
LIRR,MRK,Merrick,Babylon,40.66386508,-73.55050976,To Babylon & Points East,To Jamaica & New York,7,https://new.mta.info/stations/merrick,https://new.mta.info/document/115956,FULL,POINT (-73.55050976 40.66386508)
LIRR,WHN,Westhampton,Montauk,40.83032007,-72.65008386,To Montauk,To Jamaica & New York,14,https://new.mta.info/stations/westhampton,https://new.mta.info/document/116111,FULL,POINT (-72.65008386 40.83032007)
LIRR,ODL,Oakdale,Montauk,40.74346488,-73.13248255,"To Patchogue, Speonk, & Montauk",To Jamaica & New York,10,https://new.mta.info/stations/oakdale,https://new.mta.info/document/117346,FULL,POINT (-73.13248255 40.74346488)
MNR,2NO,Noroton Heights,New Haven,41.069021,-73.497497,To New Haven,To Stamford & New York,16,https://new.mta.info/stations/noroton-heights,,PARTIAL,POINT (-73.497497 41.069021)
LIRR,MAK,Mattituck,Greenport,40.99178973,-72.53602739,To Greenport,To Jamaica & New York,14,https://new.mta.info/stations/mattituck,https://new.mta.info/document/115881,FULL,POINT (-72.53602739 40.99178973)
MNR,1AT,Appalachian Trail,Wassaic,41.592875,-73.588057,To Wassaic,"To Southeast, White Plains, & New York",8,https://new.mta.info/stations/appalachian-trail,,NONE,POINT (-73.588057 41.592875)
LIRR,GST,Glen Street,Oyster Bay,40.85822207,-73.62079268,To Oyster Bay,To Jamaica & New York,7,https://new.mta.info/stations/glen-street,https://new.mta.info/document/115831,FULL,POINT (-73.62079268 40.85822207)
MNR,2GF,Green's Farms,New Haven,41.122488,-73.314597,To New Haven,To Stamford & New York,18,https://new.mta.info/stations/greens-farms,,PARTIAL,POINT (-73.314597 41.122488)
LIRR,PGE,Patchogue,Montauk,40.76189444,-73.01557613,"To Speonk, & Montauk",To Jamaica & New York,10,https://new.mta.info/stations/patchogue,https://new.mta.info/document/117361,FULL,POINT (-73.01557613 40.76189444)
LIRR,CAV,Centre Av,Long Beach,40.64828328,-73.66390628,To Long Beach,To Jamaica & New York,7,https://new.mta.info/stations/centre-avenue,https://new.mta.info/document/113686,FULL,POINT (-73.66390628 40.64828328)
LIRR,ISP,Islip,Montauk,40.73593032,-73.20891105,"To Patchogue, Speonk, & Montauk",To Jamaica & New York,10,https://new.mta.info/stations/islip,https://new.mta.info/document/115951,FULL,POINT (-73.20891105 40.73593032)
MNR,0BK,Breakneck Ridge,Hudson,41.450193,-73.982454,To Poughkeepsie,To Croton-Harmon & New York,7,https://new.mta.info/stations/breakneck-ridge,,NONE,POINT (-73.982454 41.450193)
MNR,1CF,Croton Falls,Harlem,41.348101,-73.662238,To Southeast & Wassaic,To White Plains & New York,7,https://new.mta.info/stations/croton-falls,https://new.mta.info/document/116326,FULL,POINT (-73.662238 41.348101)
MNR,4M7,Merritt 7,Danbury,41.146606,-73.427761,To Danbury,"To South Norwalk, Stamford, & New York",41,https://new.mta.info/stations/merritt-7,,FULL,POINT (-73.427761 41.146606)
LIRR,MTK,Montauk,Montauk,41.04745519,-71.95369127,Arrivals,Departures,14,https://new.mta.info/stations/montauk,https://new.mta.info/document/115991,FULL,POINT (-71.95369127 41.04745519)
LIRR,CHT,Cedarhurst,Far Rockaway,40.62233075,-73.72595826,To Far Rockaway,To Jamaica & New York,4,https://new.mta.info/stations/cedarhurst,https://new.mta.info/document/113676,FULL,POINT (-73.72595826 40.62233075)
LIRR,LYN,Lynbrook,Long Beach,40.65615355,-73.67603995,To Points East,To Jamaica & New York,4,https://new.mta.info/stations/lynbrook,https://new.mta.info/document/117341,FULL,POINT (-73.67603995 40.65615355)
LIRR,DPK,Deer Park,Ronkonkoma,40.76954088,-73.29336195,To Ronkonkoma & Points East,To Jamaica & New York,9,https://new.mta.info/stations/deer-park,https://new.mta.info/document/113706,FULL,POINT (-73.29336195 40.76954088)
LIRR,WHD,West Hempstead,West Hempstead,40.70202607,-73.64154322,Arrivals,Departures,4,https://new.mta.info/stations/west-hempstead,https://new.mta.info/document/116096,FULL,POINT (-73.64154322 40.70202607)
MNR,3TH,Talmadge Hill,New Canaan,41.116429,-73.497969,To New Canaan,To Stamford & New York,31,https://new.mta.info/stations/talmadge-hill,,FULL,POINT (-73.497969 41.116429)
LIRR,BTA,Babylon,Babylon,40.70076415,-73.32408767,"To Patchogue, Speonk, & Montauk",To Jamaica & New York,9,https://new.mta.info/stations/babylon,https://new.mta.info/document/98431,FULL,POINT (-73.32408767 40.70076415)
MNR,1PY,Purdy's,Harlem,41.325353,-73.658919,To Southeast & Wassaic,To White Plains & New York,7,https://new.mta.info/stations/purdys,https://new.mta.info/document/116816,FULL,POINT (-73.658919 41.325353)
MNR,0DF,Dobbs Ferry,Hudson,41.012705,-73.879369,To Croton-Harmon & Poughkeepsie,To New York,4,https://new.mta.info/stations/dobbs-ferry,,FULL,POINT (-73.879369 41.012705)
MNR,1MP,Mt Pleasant,Harlem,41.095457,-73.793752,To Southeast & Wassaic,To White Plains & New York,5,https://new.mta.info/stations/mt-pleasant,,NONE,POINT (-73.793752 41.095457)
LIRR,KPK,Kings Park,Port Jefferson,40.88368828,-73.25600585,To Port Jefferson,To Jamaica & New York,10,https://new.mta.info/stations/kings-park,https://new.mta.info/document/115986,FULL,POINT (-73.25600585 40.88368828)
LIRR,NBD,Nassau Blvd,Hempstead,40.72297212,-73.66308736,To Hempstead,To Jamaica & New York,4,https://new.mta.info/stations/nassau-boulevard,https://new.mta.info/document/116036,FULL,POINT (-73.66308736 40.72297212)
LIRR,SAB,St. Albans,West Hempstead,40.69126726,-73.76549112,To Points East,To Jamaica & New York,3,https://new.mta.info/stations/st-albans,https://new.mta.info/document/115866,NONE,POINT (-73.76549112 40.69126726)
MNR,3NC,New Canaan,New Canaan,41.145953,-73.496139,Arrivals,Departures,31,https://new.mta.info/stations/new-canaan,,FULL,POINT (-73.496139 41.145953)
MNR,0HS,Hastings-on-Hudson,Hudson,40.993837,-73.884484,To Croton-Harmon & Poughkeepsie,To New York,4,https://new.mta.info/stations/hastings-hudson,https://new.mta.info/document/116416,FULL,POINT (-73.884484 40.993837)
MNR,2RY,Rye,New Haven,40.986339,-73.681005,To Stamford & New Haven,To New York,14,https://new.mta.info/stations/rye,https://new.mta.info/document/116826,FULL,POINT (-73.681005 40.986339)
LIRR,WBY,Westbury,Port Jefferson,40.75353783,-73.58555905,To Points East,To Jamaica & New York,7,https://new.mta.info/stations/westbury,https://new.mta.info/document/116106,FULL,POINT (-73.58555905 40.75353783)
LIRR,RON,Ronkonkoma,Ronkonkoma,40.80812119,-73.10594563,To Greenport,To Jamaica & New York,10,https://new.mta.info/stations/ronkonkoma,https://new.mta.info/document/117436,FULL,POINT (-73.10594563 40.80812119)
MNR,0PE,Peekskill,Hudson,41.284406,-73.932009,To Poughkeepsie,To Croton-Harmon & New York,6,https://new.mta.info/stations/peekskill,https://new.mta.info/document/116721,FULL,POINT (-73.932009 41.284406)
LIRR,YPK,Yaphank,Greenport,40.82561542,-72.91585513,To Greenport,To Jamaica & New York,12,https://new.mta.info/stations/yaphank,https://new.mta.info/document/116136,FULL,POINT (-72.91585513 40.82561542)
LIRR,MHL,Murray Hill,Port Washington,40.76274158,-73.81450578,To Great Neck & Port Washington,To New York,3,https://new.mta.info/stations/murray-hill,https://new.mta.info/document/116016,FULL,POINT (-73.81450578 40.76274158)
LIRR,LVL,Locust Valley,Oyster Bay,40.87448921,-73.59828592,To Oyster Bay,To Jamaica & New York,7,https://new.mta.info/stations/locust-valley,https://new.mta.info/document/114206,FULL,POINT (-73.59828592 40.87448921)
MNR,4RD,Redding,Danbury,41.324796,-73.435014,To Danbury,"To South Norwalk, Stamford, & New York",42,https://new.mta.info/stations/redding,,FULL,POINT (-73.435014 41.324796)
MNR,2HS,Harrison,New Haven,40.969868,-73.711039,To Stamford & New Haven,To New York,13,https://new.mta.info/stations/harrison,https://new.mta.info/document/116386,FULL,POINT (-73.711039 40.969868)
MNR,2NR,New Rochelle,New Haven,40.911473,-73.783894,To Stamford & New Haven,To New York,12,https://new.mta.info/stations/new-rochelle,https://new.mta.info/document/116676,FULL,POINT (-73.783894 40.911473)
LIRR,BK,Stony Brook,Port Jefferson,40.92051484,-73.12838183,To Port Jefferson,To Jamaica & New York,10,https://new.mta.info/stations/stony-brook,https://new.mta.info/document/116081,FULL,POINT (-73.12838183 40.92051484)
MNR,0DV,Spuyten Duyvil,Hudson,40.878393,-73.921676,To Croton-Harmon & Poughkeepsie,To New York,2,https://new.mta.info/stations/spuyten-duyvil,https://new.mta.info/document/116861,NONE,POINT (-73.921676 40.878393)
LIRR,FLS,Flushing Main Street,Port Washington,40.75802098,-73.83107007,To Great Neck & Port Washington,To New York,3,https://new.mta.info/stations/flushing-main-street,https://new.mta.info/document/113756,FULL,POINT (-73.83107007 40.75802098)
MNR,1BX,Bronxville,Harlem,40.941461,-73.834945,"To White Plains, Southeast, & Wassaic",To New York,3,https://new.mta.info/stations/bronxville,https://new.mta.info/document/116336,PARTIAL,POINT (-73.834945 40.941461)
MNR,5SY,Seymour,Waterbury,41.395251,-73.072482,To Waterbury,"To Bridgeport, Stamford, & New York",51,https://new.mta.info/stations/seymour,,NONE,POINT (-73.072482 41.395251)
LIRR,IWD,Inwood,Far Rockaway,40.61229499,-73.74414216,To Far Rockaway,To Jamaica & New York,4,https://new.mta.info/stations/inwood,https://new.mta.info/document/115936,FULL,POINT (-73.74414216 40.61229499)
MNR,2CC,Cos Cob,New Haven,41.029753,-73.600025,To Stamford & New Haven,To New York,15,https://new.mta.info/stations/cos-cob,,PARTIAL,POINT (-73.600025 41.029753)
MNR,0GY,Greystone,Hudson,40.973393,-73.889083,To Croton-Harmon & Poughkeepsie,To New York,3,https://new.mta.info/stations/greystone,https://new.mta.info/document/116371,FULL,POINT (-73.889083 40.973393)
MNR,0SB,Scarborough,Hudson,41.139462,-73.867034,To Croton-Harmon & Poughkeepsie,To New York,5,https://new.mta.info/stations/scarborough,https://new.mta.info/document/116836,FULL,POINT (-73.867034 41.139462)
LIRR,EHN,East Hampton,Montauk,40.96513767,-72.19289967,To Montauk,To Jamaica & New York,14,https://new.mta.info/stations/east-hampton,https://new.mta.info/document/113716,FULL,POINT (-72.19289967 40.96513767)
MNR,1HN,Hawthorne,Harlem,41.10913,-73.79612,To Southeast & Wassaic,To White Plains & New York,5,https://new.mta.info/stations/hawthorne,https://new.mta.info/document/116441,FULL,POINT (-73.79612 41.10913)
LIRR,JAM,Jamaica,City Terminal Zone,40.69961991,-73.80843137,To Long Island,To Points West,3,https://new.mta.info/stations/jamaica,,FULL,POINT (-73.80843137 40.69961991)
MNR,5WB,Waterbury,Waterbury,41.554447,-73.047065,Arrivals,Departures,51,https://new.mta.info/stations/waterbury,,FULL,POINT (-73.047065 41.554447)
LIRR,ODE,Oceanside,Long Beach,40.63476614,-73.65465475,To Long Beach,To Jamaica & New York,7,https://new.mta.info/stations/oceanside,https://new.mta.info/document/117351,FULL,POINT (-73.65465475 40.63476614)
MNR,2GN,Greenwich,New Haven,41.021232,-73.625776,To Stamford & New Haven,To New York,15,https://new.mta.info/stations/greenwich,,FULL,POINT (-73.625776 41.021232)
MNR,0OS,Ossining,Hudson,41.1572,-73.869168,To Croton-Harmon & Poughkeepsie,To New York,5,https://new.mta.info/stations/ossining,https://new.mta.info/document/116696,FULL,POINT (-73.869168 41.1572)
MNR,0BC,Beacon,Hudson,41.506503,-73.984726,To Poughkeepsie,To Croton-Harmon & New York,8,https://new.mta.info/stations/beacon,https://new.mta.info/document/116176,FULL,POINT (-73.984726 41.506503)
MNR,1GO,Goldens Bridge,Harlem,41.294036,-73.677658,To Southeast & Wassaic,To White Plains & New York,6,https://new.mta.info/stations/goldens-bridge,https://new.mta.info/document/116351,FULL,POINT (-73.677658 41.294036)
MNR,2SM,Stamford,New Haven,41.046938,-73.541732,To New Haven & New Canaan,To New York,16,https://new.mta.info/stations/stamford,,FULL,POINT (-73.541732 41.046938)
MNR,1FW,Fleetwood,Harlem,40.92626,-73.840376,"To White Plains, Southeast, & Wassaic",To New York,3,https://new.mta.info/stations/fleetwood,https://new.mta.info/document/116336,FULL,POINT (-73.840376 40.92626)
LIRR,WMR,Woodmere,Far Rockaway,40.631336,-73.71370203,To Far Rockaway,To Jamaica & New York,4,https://new.mta.info/stations/woodmere,https://new.mta.info/document/116121,FULL,POINT (-73.71370203 40.631336)
MNR,1WA,Wassaic,Wassaic,41.814831,-73.562371,Arrivals,Departures,10,https://new.mta.info/stations/wassaic,https://new.mta.info/document/116891,FULL,POINT (-73.562371 41.814831)
LIRR,CPG,Copiague,Babylon,40.68106307,-73.39834275,To Babylon & Points East,To Jamaica & New York,9,https://new.mta.info/stations/copiague,https://new.mta.info/document/113696,FULL,POINT (-73.39834275 40.68106307)
LIRR,SHD,Southold,Greenport,41.06631707,-72.42784279,To Greenport,To Jamaica & New York,14,https://new.mta.info/stations/southold,https://new.mta.info/document/115836,FULL,POINT (-72.42784279 41.06631707)
MNR,2RS,Riverside,New Haven,41.031607,-73.587708,To Stamford & New Haven,To New York,15,https://new.mta.info/stations/riverside,,PARTIAL,POINT (-73.587708 41.031607)
LIRR,SYT,Syosset,Port Jefferson,40.82482831,-73.50054735,To Huntington & Port Jefferson,To Jamaica & New York,7,https://new.mta.info/stations/syosset,https://new.mta.info/document/116086,FULL,POINT (-73.50054735 40.82482831)
LIRR,NYK,Penn Station,City Terminal Zone,40.75032688,-73.99296028,Departures,Arrivals,1,https://new.mta.info/stations/penn-station,,FULL,POINT (-73.99296028 40.75032688)
MNR,1TK,Tuckahoe,Harlem,40.949702,-73.829666,"To White Plains, Southeast, & Wassaic",To New York,3,https://new.mta.info/stations/tuckahoe,https://new.mta.info/document/116876,FULL,POINT (-73.829666 40.949702)
LIRR,DGL,Douglaston,Port Washington,40.76812045,-73.7493319,To Great Neck & Port Washington,To New York,3,https://new.mta.info/stations/douglaston,https://new.mta.info/document/113711,PARTIAL,POINT (-73.7493319 40.76812045)
LIRR,WDD,Woodside,City Terminal Zone,40.74582241,-73.90300318,To Points East,To New York,1,https://new.mta.info/stations/woodside,,FULL,POINT (-73.90300318 40.74582241)
LIRR,LNK,Little Neck,Port Washington,40.77509929,-73.74056395,To Great Neck & Port Washington,To New York,3,https://new.mta.info/stations/little-neck,https://new.mta.info/document/114196,FULL,POINT (-73.74056395 40.77509929)
LIRR,QVG,Queens Village,Hempstead,40.71752423,-73.73621938,To Hempstead,To Jamaica & New York,3,https://new.mta.info/stations/queens-village,https://new.mta.info/document/117401,FULL,POINT (-73.73621938 40.71752423)
MNR,0UH,University Heights,Hudson,40.861582,-73.913909,To Croton-Harmon & Poughkeepsie,To New York,2,https://new.mta.info/stations/university-heights,,FULL,POINT (-73.913909 40.861582)
MNR,0LU,Ludlow,Hudson,40.922588,-73.906004,To Croton-Harmon & Poughkeepsie,To New York,3,https://new.mta.info/stations/ludlow,https://new.mta.info/document/116466,NONE,POINT (-73.906004 40.922588)
MNR,1SC,Scarsdale,Harlem,40.990035,-73.808381,"To White Plains, Southeast, & Wassaic",To New York,4,https://new.mta.info/stations/scarsdale,https://new.mta.info/document/116841,FULL,POINT (-73.808381 40.990035)
MNR,0IV,Irvington,Hudson,41.040388,-73.872988,To Croton-Harmon & Poughkeepsie,To New York,4,https://new.mta.info/stations/irvington,https://new.mta.info/document/116446,PARTIAL,POINT (-73.872988 41.040388)
LIRR,ATL,Atlantic Terminal,City Terminal Zone,40.68445728,-73.9770303,Departures,Arrivals,1,https://new.mta.info/stations/atlantic-terminal,,FULL,POINT (-73.9770303 40.68445728)
MNR,1BG,Botanical Garden,Harlem,40.867237,-73.881873,"To White Plains, Southeast, & Wassaic",To New York,2,https://new.mta.info/stations/botanical-garden,https://new.mta.info/document/116206,FULL,POINT (-73.881873 40.867237)
MNR,2SS,New Haven-State St,New Haven,41.304993,-72.921768,Arrivals,Departures,21,https://new.mta.info/stations/new-haven-state-street,,FULL,POINT (-72.921768 41.304993)
MNR,2PC,Port Chester,New Haven,41.001367,-73.66409,To Stamford & New Haven,To New York,14,https://new.mta.info/stations/port-chester,https://new.mta.info/document/116796,FULL,POINT (-73.66409 41.001367)
LIRR,GWN,Greenlawn,Port Jefferson,40.8686237,-73.36300289,To Port Jefferson,To Jamaica & New York,9,https://new.mta.info/stations/greenlawn,https://new.mta.info/document/115871,FULL,POINT (-73.36300289 40.8686237)
LIRR,PLN,Pinelawn,Ronkonkoma,40.74535986,-73.39955329,To Ronkonkoma & Points East,To Jamaica & New York,9,https://new.mta.info/stations/pinelawn,,FULL,POINT (-73.39955329 40.74535986)
MNR,2FM,Fairfield-Black Rock,New Haven,41.160995,-73.234347,To New Haven,To Stamford & New York,18,https://new.mta.info/stations/fairfield-black-rock,,FULL,POINT (-73.234347 41.160995)
MNR,0NM,New Hamburg,Hudson,41.586763,-73.947561,To Poughkeepsie,To Croton-Harmon & New York,8,https://new.mta.info/stations/new-hamburg,https://new.mta.info/document/116676,PARTIAL,POINT (-73.947561 41.586763)
MNR,0CS,Cold Spring,Hudson,41.415356,-73.958173,To Poughkeepsie,To Croton-Harmon & New York,7,https://new.mta.info/stations/cold-spring,https://new.mta.info/document/116301,FULL,POINT (-73.958173 41.415356)
LIRR,ERY,East Rockaway,Long Beach,40.64215213,-73.65813416,To Long Beach,To Jamaica & New York,7,https://new.mta.info/stations/east-rockaway,https://new.mta.info/document/113721,FULL,POINT (-73.65813416 40.64215213)
LIRR,EWN,East Williston,Oyster Bay,40.75629024,-73.6394629,To Oyster Bay,To Jamaica & New York,4,https://new.mta.info/stations/east-williston,https://new.mta.info/document/113726,FULL,POINT (-73.6394629 40.75629024)
MNR,3SD,Springdale,New Canaan,41.089039,-73.517706,To New Canaan,To Stamford & New York,31,https://new.mta.info/stations/springdale,,FULL,POINT (-73.517706 41.089039)
LIRR,BRS,Bellerose,Hempstead,40.72221816,-73.71648547,To Points East,To Jamaica & New York,4,https://new.mta.info/stations/bellerose,https://new.mta.info/document/113636,NONE,POINT (-73.71648547 40.72221816)
LIRR,LIC,Long Island City,City Terminal Zone,40.74135624,-73.95603088,Departures,Arrivals,1,https://new.mta.info/stations/long-island-city,,FULL,POINT (-73.95603088 40.74135624)
MNR,2OG,Old Greenwich,New Haven,41.033413,-73.567145,To Stamford & New Haven,To New York,15,https://new.mta.info/stations/old-greenwich,,PARTIAL,POINT (-73.567145 41.033413)
LIRR,VSM,Valley Stream,Far Rockaway,40.66155042,-73.70481012,To Points East,To Jamaica & New York,4,https://new.mta.info/stations/valley-stream,https://new.mta.info/document/113786,FULL,POINT (-73.70481012 40.66155042)
MNR,1MW,Mt Vernon West,Harlem,40.912023,-73.851142,"To White Plains, Southeast, & Wassaic",To New York,3,https://new.mta.info/stations/mt-vernon-west,https://new.mta.info/document/116666,FULL,POINT (-73.851142 40.912023)
MNR,5AN,Ansonia,Waterbury,41.344166,-73.079965,To Waterbury,"To Bridgeport, Stamford, & New York",51,https://new.mta.info/stations/ansonia,,NONE,POINT (-73.079965 41.344166)
LIRR,HGN,Hempstead Gardens,West Hempstead,40.69490918,-73.64620359,To West Hempstead,To Jamaica & New York,4,https://new.mta.info/stations/hempstead-gardens,https://new.mta.info/document/115901,FULL,POINT (-73.64620359 40.69490918)
LIRR,BHN,Bridgehampton,Montauk,40.93911034,-72.30979879,To Montauk,To Jamaica & New York,14,https://new.mta.info/stations/bridgehampton,https://new.mta.info/document/113661,FULL,POINT (-72.30979879 40.93911034)
MNR,2LA,Larchmont,New Haven,40.934343,-73.758641,To Stamford & New Haven,To New York,13,https://new.mta.info/stations/larchmont,https://new.mta.info/document/116461,FULL,POINT (-73.758641 40.934343)
LIRR,SFD,Seaford,Babylon,40.67576413,-73.48647748,To Babylon & Points East,To Jamaica & New York,7,https://new.mta.info/stations/seaford,https://new.mta.info/document/115801,FULL,POINT (-73.48647748 40.67576413)
MNR,4BE,Bethel,Danbury,41.376189,-73.418197,To Danbury,"To South Norwalk, Stamford, & New York",42,https://new.mta.info/stations/bethel,,FULL,POINT (-73.418197 41.376189)
LIRR,PDM,Plandome,Port Washington,40.81054479,-73.69524064,To Port Washington,To New York,4,https://new.mta.info/stations/plandome,https://new.mta.info/document/117386,FULL,POINT (-73.69524064 40.81054479)
LIRR,SSM,Mets-Willets Point,Port Washington,40.75260683,-73.84369038,To Great Neck & Port Washington,To Woodside & New York,1,https://new.mta.info/stations/mets-willets-point-lirr,,NONE,POINT (-73.84369038 40.75260683)
LIRR,FHL,Forest Hills,City Terminal Zone,40.71959922,-73.84483539,To Jamaica & Points East,To New York,1,https://new.mta.info/stations/forest-hills,,FULL,POINT (-73.84483539 40.71959922)
LIRR,STN,Smithtown,Port Jefferson,40.85661712,-73.19767748,To Port Jefferson,To Jamaica & New York,10,https://new.mta.info/stations/smithtown,https://new.mta.info/document/115806,FULL,POINT (-73.19767748 40.85661712)
LIRR,GCY,Garden City,Hempstead,40.72308753,-73.64051987,To Hempstead,To Jamaica & New York,4,https://new.mta.info/stations/garden-city,https://new.mta.info/document/115791,FULL,POINT (-73.64051987 40.72308753)
LIRR,KGN,Kew Gardens,City Terminal Zone,40.70970443,-73.83092566,To Jamaica & Points East,To New York,1,https://new.mta.info/stations/kew-gardens,https://new.mta.info/document/115981,NONE,POINT (-73.83092566 40.70970443)
MNR,1MK,Mt Kisco,Harlem,41.208797,-73.729601,To Southeast & Wassaic,To White Plains & New York,6,https://new.mta.info/stations/mount-kisco,https://new.mta.info/document/116656,FULL,POINT (-73.729601 41.208797)
